  [
  {
    "eventID": "1",
    "name": "Family Day/Night",
    "date": "June 10, 2007",
    "day": "10",
    "locationName": "Diablo Valley College",
    "address": "321 Golf Club Road",
    "city": "Pleasant Hill",
    "state": "CA",
    "zip": "94523",
    "countryID": "182",
    "country": "United States",
    "score": "",
    "lat": "37.968053",
    "lng": "-122.069821"
  },
  {
    "eventID": "2",
    "name": "Precision West",
    "date": "June 16, 2007",
    "day": "16",
    "locationName": "Diablo Valley College",
    "address": "321 Golf Club Road",
    "city": "Pleasant Hill",
    "state": "CA",
    "zip": "94523",
    "countryID": "182",
    "country": "United States",
    "score": "75.9",
    "placement":"1",
    "lat": "37.968053",
    "lng": "-122.069821"
  },
  {
    "eventID": "3",
    "name": "Moonlight Classic",
    "date": "June 17, 2007",
    "day": "17",
    "locationName": "University of the Pacific",
    "address": "111 East March Lane",
    "city": "Stockton",
    "state": "CA",
    "zip": "95207",
    "countryID": "182",
    "country": "United States",
    "score": "75.55",
    "placement":"2",
    "lat": "37.998164",
    "lng": "-121.304334"
  },
  {
    "eventID": "4",
    "name": "Bakersfield Sounds of Summer",
    "date": "June 20, 2007",
    "day": "20",
    "locationName": "Lemoore Union  HS",
    "address": "5 Powell St.",
    "city": "Lemoore",
    "state": "CA",
    "zip": "93245",
    "countryID": "182",
    "country": "United States",
    "score": "76.55",
    "placement":"2",
    "lat": "36.2983901",
    "lng": "-119.7796308"
  },
  {
    "eventID": "5",
    "name": "Western Corps Connection",
    "date": "June 22, 2007",
    "day": "22",
    "locationName": "Yuicaipa High School",
    "address": "33000 Yucaipa Blvd.",
    "city": "Yucaipa",
    "state": "CA",
    "zip": "92399",
    "countryID": "182",
    "country": "United States",
    "score": "78.65",
    "placement":"1",
    "lat": "34.0348929",
    "lng": "-117.085709"
  },
  {
    "eventID": "6",
    "name": "Corps at the Crest",
    "date": "June 23, 2007",
    "day": "23",
    "locationName": "Mt San Antonio College",
    "address": "1100 N. GRAND AVENUE",
    "city": "Walnut",
    "state": "CA",
    "zip": "91789",
    "countryID": "182",
    "country": "United States",
    "score": "79.4",
    "placement":"1",
    "lat": "34.04497",
    "lng": "-117.8484535"
  },
  {
    "eventID": "7",
    "name": "Southwest Corps Connection I",
    "date": "June 24, 2007",
    "day": "24",
    "locationName": "Sunrise Mt. HS",
    "address": "21200 N. 38th Ave.",
    "city": "Peoria",
    "state": "AZ",
    "zip": "85382",
    "countryID": "182",
    "country": "United States",
    "score": "79.75",
    "placement":"1",
    "lat": "33.5873827",
    "lng": "-112.140293"
  },
  {
    "eventID": "8",
    "name": "Drums on the Ohio",
    "date": "June 28, 2007",
    "day": "28",
    "locationName": "Princeton Community HS",
    "address": "PR 4 Box 49",
    "city": "Princeton",
    "state": "IN",
    "zip": "47670",
    "countryID": "182",
    "country": "United States",
    "score": "80.6",
    "placement":"1",
    "lat": "38.3553236",
    "lng": "-87.5675222"
  },
  {
    "eventID": "9",
    "name": "DCI Kalamazoo",
    "date": "June 30, 2007",
    "day": "30",
    "locationName": "WMU Waldo Stadium",
    "address": "1903 West Michigan Ave",
    "city": "Kalamazoo",
    "state": "MI",
    "zip": "",
    "countryID": "182",
    "country": "United States",
    "score": "82.15",
    "placement":"1",
    "lat": "42.2852603",
    "lng": "-85.6122665"
  },
  {
    "eventID": "10",
    "name": "Soaring Sounds",
    "date": "July 2, 2007",
    "day": "2",
    "locationName": "Bellbrook HS",
    "address": "3737 Upper Bellbrook Rd.",
    "city": "Bellbrook",
    "state": "OH",
    "zip": "45305",
    "countryID": "182",
    "country": "United States",
    "score": "83.5",
    "placement":"2",
    "lat": "39.6511179",
    "lng": "-84.0694239"
  },
  {
    "eventID": "11",
    "name": "Artistry in Motion",
    "date": "July 5, 2007",
    "day": "5",
    "locationName": "Walnut Ridge HS",
    "address": "4841 Livingston Ave.",
    "city": "Columbus",
    "state": "OH",
    "zip": "43227",
    "countryID": "182",
    "country": "United States",
    "score": "84.8",
    "placement":"1",
    "lat": "39.9440173",
    "lng": "-82.8646392"
  },
  {
    "eventID": "12",
    "name": "Pro Football Hall of Fame Festival Drum Corps",
    "date": "July 7, 2007",
    "day": "7",
    "locationName": "Fawcett Stadium",
    "address": "2300 Schneider Road",
    "city": "Canton",
    "state": "OH",
    "zip": "44721",
    "countryID": "182",
    "country": "United States",
    "score": "83.6",
    "placement":"2",
    "lat": "40.86469",
    "lng": "-81.342555"
  },
  {
    "eventID": "13",
    "name": "DCI Eastern Classic",
    "date": "July 8, 2007",
    "day": "8",
    "locationName": "Reading HS",
    "address": "801 North 13th St.",
    "city": "Reading",
    "state": "PA",
    "zip": "19604",
    "countryID": "182",
    "country": "United States",
    "score": "86.475",
    "placement":"1",
    "lat": "40.3472318",
    "lng": "-75.9119122"
  },
  {
    "eventID": "14",
    "name": "Music in Motion",
    "date": "July 9, 2007",
    "day": "9",
    "locationName": "Hershey Stadium",
    "address": "100 Hershey Park Dr",
    "city": "Hershey",
    "state": "PA",
    "zip": "19604",
    "countryID": "182",
    "country": "United States",
    "score": "86.6",
    "placement":"1",
    "lat": "40.2926999",
    "lng": "-76.6541182"
  },
  {
    "eventID": "15",
    "name": "Drums Across the Tri-State",
    "date": "July 10, 2007",
    "day": "10",
    "locationName": "University of Charleston Stadium",
    "address": "200 Elizabeth St.",
    "city": "Charleston",
    "state": "WV",
    "zip": "25177",
    "countryID": "182",
    "country": "United States",
    "score": "86.85",
    "placement":"1",
    "lat": "38.3393359",
    "lng": "-81.6175151"
  },
  {
    "eventID": "16",
    "name": "Masters of the Summer Music Games",
    "date": "July 13, 2007",
    "day": "13",
    "locationName": "Lebanon High School",
    "address": "200 W Schuetz St",
    "city": "Lebanon",
    "state": "IL",
    "zip": "62254",
    "countryID": "182",
    "country": "United States",
    "score": "87.675",
    "placement":"1",
    "lat": "38.6010799",
    "lng": "-89.8090171"
  },
  {
    "eventID": "17",
    "name": "DCI Atlanta",
    "date": "July 14, 2007",
    "day": "14",
    "locationName": "Georgia Dome",
    "address": "5230 Taylor Road",
    "city": "Alpharetta",
    "state": "GA",
    "zip": "30022",
    "countryID": "182",
    "country": "United States",
    "score": "88.475",
    "placement":"1",
    "lat": "34.0480401",
    "lng": "-84.2080034"
  },
  {
    "eventID": "18",
    "name": "Spirit of America",
    "date": "July 15, 2007",
    "day": "15",
    "locationName": "Jacksonville State University",
    "address": "700 Pelham Road North",
    "city": "Jacksonville",
    "state": "AL",
    "zip": "36265",
    "countryID": "182",
    "country": "United States",
    "score": "89.65",
    "placement":"1",
    "lat": "33.8235048",
    "lng": "-85.7633394"
  },
  {
    "eventID": "19",
    "name": "Drummin' Down the Trace",
    "date": "July 16, 2007",
    "day": "16",
    "locationName": "Tupelo High School",
    "address": "4125 Cliff Gookin Rd",
    "city": "Tupelo",
    "state": "MS",
    "zip": "38801",
    "countryID": "182",
    "country": "United States",
    "score": "88.15",
    "placement":"1",
    "lat": "34.2310645",
    "lng": "-88.7651432"
  },
  {
    "eventID": "20",
    "name": "North Texas Festival of Drums and Bugles",
    "date": "July 19, 2007",
    "day": "19",
    "locationName": "Little Elm High School",
    "address": "1900 Walker Lane",
    "city": "Little Elm",
    "state": "TX",
    "zip": "75068",
    "countryID": "182",
    "country": "United States",
    "score": "90.4",
    "placement":"1",
    "lat": "33.1798201",
    "lng": "-96.9065639"
  },
  {
    "eventID": "21",
    "name": "DCI San Antonio",
    "date": "July 21, 2007",
    "day": "21",
    "locationName": "Alamo Stadium",
    "address": "100 Montana Street",
    "city": "San Antonio",
    "state": "TX",
    "zip": "78215",
    "countryID": "182",
    "country": "United States",
    "score": "91.35",
    "placement":"1",
    "lat": "29.417236",
    "lng": "-98.477916"
  },
  {
    "eventID": "22",
    "name": "Thunder in the Desert",
    "date": "July 23, 2007",
    "day": "23",
    "locationName": "Howard College",
    "address": "1001 Birdwell Lane",
    "city": "Big Springs",
    "state": "TX",
    "zip": "79720",
    "countryID": "182",
    "country": "United States",
    "score": "91.7",
    "placement":"1",
    "lat": "32.3813743",
    "lng": "-101.2799491"
  },
  {
    "eventID": "23",
    "name": "Rumble in the Falls",
    "date": "July 24, 2007",
    "day": "24",
    "locationName": "Burkburnett HS",
    "address": "109 West Kramer",
    "city": "Burkburnett",
    "state": "TX",
    "zip": "76354",
    "countryID": "182",
    "country": "United States",
    "score": "91.7",
    "placement":"1",
    "lat": "34.081466",
    "lng": "-98.574304"
  },
  {
    "eventID": "24",
    "name": "Brass Spectacular!",
    "date": "July 25, 2007",
    "day": "25",
    "locationName": "Pittsburg State University",
    "address": "1701 South Broadway",
    "city": "Pittsburg",
    "state": "KS",
    "zip": "66762",
    "countryID": "182",
    "country": "United States",
    "score": "92.75",
    "placement":"1",
    "lat": "37.3914342",
    "lng": "-94.7049965"
  },
  {
    "eventID": "25",
    "name": "DCI Indianapolis",
    "date": "July 28, 2007",
    "day": "28",
    "locationName": "RCA Dome",
    "address": "7320 West 10th St.",
    "city": "Indianapolis",
    "state": "IN",
    "zip": "46214",
    "countryID": "182",
    "country": "United States",
    "score": "92.55",
    "placement":"1",
    "lat": "39.781176",
    "lng": "-86.291169"
  },
  {
    "eventID": "26",
    "name": "DCI Columbia",
    "date": "July 29, 2007",
    "day": "29",
    "locationName": "Rock Bridge High School",
    "address": "4303 S. Providence Rd.",
    "city": "Columbia",
    "state": "MO",
    "zip": "65203",
    "countryID": "182",
    "country": "United States",
    "score": "92.25",
    "placement":"1",
    "lat": "38.9022698",
    "lng": "-92.3351278"
  },
  {
    "eventID": "27",
    "name": "DCI West Championship",
    "date": "August 4, 2007",
    "day": "4",
    "locationName": "Stanford University",
    "address": "50 Embarcadero Rd",
    "city": "Palo Alto",
    "state": "CA",
    "zip": "94301",
    "countryID": "182",
    "country": "United States",
    "score": "94.825",
    "placement":"2",
    "lat": "37.437384",
    "lng": "-122.157712"
  },
  {
    "eventID": "28",
    "name": "Clovis",
    "date": "August 5, 2007",
    "day": "5",
    "locationName": "Buchanan High School",
    "address": "1560 N. Minnewawa",
    "city": "Clovis",
    "state": "CA",
    "zip": "93619",
    "countryID": "182",
    "country": "United States",
    "score": "95.775",
    "placement":"2",
    "lat": "36.854763",
    "lng": "-119.714756"
  },
  {
    "eventID": "29",
    "name": "DCI World Championship Quarter-Finals",
    "date": "August 9, 2007",
    "day": "9",
    "locationName": "Rose Bowl",
    "address": "7447 Cleveland Ave.",
    "city": "Corona",
    "state": "CA",
    "zip": "92880",
    "countryID": "182",
    "country": "United States",
    "score": "97.2",
    "placement":"1",
    "lat": "33.9556898",
    "lng": "-117.5670432"
  },
  {
    "eventID": "30",
    "name": "DCI World Championship Semi-Finals",
    "date": "August 10, 2007",
    "day": "10",
    "locationName": "Rose Bowl",
    "address": "1001 Rose Bowl Dr.",
    "city": "Pasadena",
    "state": "CA",
    "zip": "91103",
    "countryID": "182",
    "country": "United States",
    "score": "97.3",
    "placement":"1",
    "lat": "34.1560475",
    "lng": "-118.1652331"
  },
  {
    "eventID": "31",
    "name": "DCI World Championship Finals",
    "day": "11",
    "date": "August 11, 2007",
    "locationName": "Rose Bowl",
    "address": "1001 Rose Bowl Dr.",
    "city": "Pasadena",
    "state": "CA",
    "zip": "91103",
    "countryID": "182",
    "country": "United States",
    "score": "98",
    "placement":"1",
    "lat": "34.1560475",
    "lng": "-118.1652331"
  }
  ]